[
  {
    "name": "Sotinski breg (Kugla)",
    "elevation": 418,
    "mountain_range": "Prekmurje",
    "latitude": 46.836,
    "longitude": 16.0305
  },
  {
    "name": "Serdiški breg (Rdeči breg)",
    "elevation": 416,
    "mountain_range": "Prekmurje",
    "latitude": 46.83036,
    "longitude": 16.0133
  },
  {
    "name": "Križarka",
    "elevation": 413,
    "mountain_range": "Prekmurje",
    "latitude": 46.82852,
    "longitude": 16.13244
  },
  {
    "name": "Srebrni breg",
    "elevation": 404,
    "mountain_range": "Prekmurje",
    "latitude": 46.85029,
    "longitude": 16.14388
  },
  {
    "name": "Vukova kapela (Vidonci)",
    "elevation": 401,
    "mountain_range": "Prekmurje",
    "latitude": 46.81603,
    "longitude": 16.13171
  },
  {
    "name": "Cerkev sv. Ane v Boreči",
    "elevation": 395,
    "mountain_range": "Prekmurje",
    "latitude": 46.82817,
    "longitude": 16.15796
  },
  {
    "name": "Kamenek",
    "elevation": 392,
    "mountain_range": "Prekmurje",
    "latitude": 46.77519,
    "longitude": 16.20289
  },
  {
    "name": "Tromejnik",
    "elevation": 390,
    "mountain_range": "Prekmurje",
    "latitude": 46.8691,
    "longitude": 16.1138
  },
  {
    "name": "Evharistični križ v Trdkovi",
    "elevation": 388,
    "mountain_range": "Prekmurje",
    "latitude": 46.85784,
    "longitude": 16.12385
  },
  {
    "name": "Pepelšček",
    "elevation": 386,
    "mountain_range": "Prekmurje",
    "latitude": 46.80553,
    "longitude": 16.10241
  },
  {
    "name": "Činčev breg",
    "elevation": 375,
    "mountain_range": "Prekmurje",
    "latitude": 46.83733,
    "longitude": 16.0423
  },
  {
    "name": "Bogin breg",
    "elevation": 371,
    "mountain_range": "Prekmurje",
    "latitude": 46.84689,
    "longitude": 16.11312
  },
  {
    "name": "Grad Grad na Goričkem",
    "elevation": 370,
    "mountain_range": "Prekmurje",
    "latitude": 46.8002,
    "longitude": 16.0959
  },
  {
    "name": "Zalka",
    "elevation": 362,
    "mountain_range": "Prekmurje",
    "latitude": 46.84995,
    "longitude": 16.11214
  },
  {
    "name": "Gorički breg",
    "elevation": 362,
    "mountain_range": "Prekmurje",
    "latitude": 46.86701,
    "longitude": 16.21655
  },
  {
    "name": "Sveti Benedikt (Kančevci)",
    "elevation": 358,
    "mountain_range": "Prekmurje",
    "latitude": 46.751,
    "longitude": 16.2334
  },
  {
    "name": "Kapela v Stanjevcih",
    "elevation": 357,
    "mountain_range": "Prekmurje",
    "latitude": 46.81051,
    "longitude": 16.18727
  },
  {
    "name": "Sveta Trojica (Gornji Petrovci)",
    "elevation": 355,
    "mountain_range": "Prekmurje",
    "latitude": 46.81425,
    "longitude": 16.22001
  },
  {
    "name": "Apneni breg",
    "elevation": 352,
    "mountain_range": "Prekmurje",
    "latitude": 46.82597,
    "longitude": 15.99472
  },
  {
    "name": "Beli breg",
    "elevation": 346,
    "mountain_range": "Prekmurje",
    "latitude": 46.81361,
    "longitude": 16.00783
  },
  {
    "name": "Kripta",
    "elevation": 331,
    "mountain_range": "Prekmurje",
    "latitude": 46.79322,
    "longitude": 16.08885
  },
  {
    "name": "Piramida (Lendavske gorice)",
    "elevation": 327,
    "mountain_range": "Prekmurje",
    "latitude": 46.5658,
    "longitude": 16.4769
  },
  {
    "name": "Griški vrh",
    "elevation": 322,
    "mountain_range": "Prekmurje",
    "latitude": 46.73955,
    "longitude": 16.11552
  },
  {
    "name": "Makotrov breg",
    "elevation": 319,
    "mountain_range": "Prekmurje",
    "latitude": 46.74565,
    "longitude": 16.28552
  },
  {
    "name": "Kapela v Zgornjih Moravcih",
    "elevation": 315,
    "mountain_range": "Prekmurje",
    "latitude": 46.71749,
    "longitude": 16.2519
  },
  {
    "name": "Cerkev sv. Nikolaja (Dolenci)",
    "elevation": 309,
    "mountain_range": "Prekmurje",
    "latitude": 46.85101,
    "longitude": 16.28697
  },
  {
    "name": "Sveti Martin (Stari breg)",
    "elevation": 307,
    "mountain_range": "Prekmurje",
    "latitude": 46.78081,
    "longitude": 16.27739
  },
  {
    "name": "Fuks graba",
    "elevation": 305,
    "mountain_range": "Prekmurje",
    "latitude": 46.74624,
    "longitude": 16.00742
  },
  {
    "name": "Trestenjak",
    "elevation": 304,
    "mountain_range": "Prekmurje",
    "latitude": 46.7395,
    "longitude": 16.21098
  },
  {
    "name": "Razgledni stolp Vinarium Lendava",
    "elevation": 302,
    "mountain_range": "Prekmurje",
    "latitude": 46.5675,
    "longitude": 16.4682
  },
  {
    "name": "Sveta Helena (Pertoča)",
    "elevation": 298,
    "mountain_range": "Prekmurje",
    "latitude": 46.77803,
    "longitude": 16.0282
  },
  {
    "name": "Gomba",
    "elevation": 290,
    "mountain_range": "Prekmurje",
    "latitude": 46.70466,
    "longitude": 16.27448
  },
  {
    "name": "Ograd",
    "elevation": 282,
    "mountain_range": "Prekmurje",
    "latitude": 46.73158,
    "longitude": 16.19243
  },
  {
    "name": "Sveta Trojica v Lendavskih goricah",
    "elevation": 266,
    "mountain_range": "Prekmurje",
    "latitude": 46.5599,
    "longitude": 16.4617
  },
  {
    "name": "Rotunda sv. Nikolaja (Selo)",
    "elevation": 251,
    "mountain_range": "Prekmurje",
    "latitude": 46.731,
    "longitude": 16.2773
  },
  {
    "name": "Vršič nad Bogojino",
    "elevation": 246,
    "mountain_range": "Prekmurje",
    "latitude": 46.68297,
    "longitude": 16.28028
  },
  {
    "name": "Lendavski grad (Dolnjelendavski grad)",
    "elevation": 205,
    "mountain_range": "Prekmurje",
    "latitude": 46.5668,
    "longitude": 16.4529
  },
  {
    "name": "Vrt spominov in tovarištva na Petanjcih",
    "elevation": 200,
    "mountain_range": "Prekmurje",
    "latitude": 46.6499,
    "longitude": 16.07764
  }
]